{"refineMapSearch":{"status":200,"hits":0,"totalHits":4264,"data":{"aggregations":[{"field":"country","value":[{"key":"United States of America","count":3200},{"key":"Canada","count":294},{"key":"United Kingdom","count":147},{"key":"Poland","count":124},{"key":"Singapore","count":111},{"key":"India","count":86},{"key":"Philippines","count":69},{"key":"Australia","count":67},{"key":"Mexico","count":54},{"key":"Germany","count":35},{"key":"France","count":16},{"key":"Saudi Arabia","count":14},{"key":"United Arab Emirates","count":8},{"key":"New Zealand","count":4},{"key":"Qatar","count":4},{"key":"Ireland","count":3},{"key":"Japan","count":3},{"key":"Spain","count":3},{"key":"China","count":2},{"key":"Colombia","count":2},{"key":"Malaysia","count":2},{"key":"Taiwan","count":2},{"key":"Belgium","count":1},{"key":"Hong Kong","count":1},{"key":"Iraq","count":1},{"key":"Israel","count":1},{"key":"Jordan","count":1},{"key":"Korea, Republic of","count":1},{"key":"Kuwait","count":1},{"key":"Portugal","count":1},{"key":"Türkiye","count":1}]},{"field":"city","value":[{"country":"United States of America","city":"tucson","latlong":{"lon":-110.92648,"lat":32.22174},"location":"tucson, Arizona, United States of America","state":"Arizona","key":"tucson","count":552},{"country":"United States of America","city":"tewksbury","latlong":{"lon":-71.23422,"lat":42.61065},"location":"tewksbury, Massachusetts, United States of America","state":"Massachusetts","key":"tewksbury","count":207},{"country":"United States of America","city":"cedar rapids","latlong":{"lon":-91.64407,"lat":42.00833},"location":"cedar rapids, Iowa, United States of America","state":"Iowa","key":"cedar rapids","count":205},{"country":"United States of America","city":"andover","latlong":{"lon":-71.137,"lat":42.65843},"location":"andover, Massachusetts, United States of America","state":"Massachusetts","key":"andover","count":186},{"country":"United States of America","city":"east hartford","latlong":{"lon":-72.61203,"lat":41.78232},"location":"east hartford, Connecticut, United States of America","state":"Connecticut","key":"east hartford","count":160},{"country":"United States of America","city":"mckinney","latlong":{"lon":-96.61527,"lat":33.19762},"location":"mckinney, Texas, United States of America","state":"Texas","key":"mckinney","count":142},{"country":"United States of America","city":"marlborough","latlong":{"lon":-71.55229,"lat":42.34593},"location":"marlborough, Massachusetts, United States of America","state":"Massachusetts","key":"marlborough","count":131},{"country":"United States of America","city":"huntsville","latlong":{"lon":-86.58594,"lat":34.7304},"location":"huntsville, Alabama, United States of America","state":"Alabama","key":"huntsville","count":96},{"country":"United States of America","city":"richardson","latlong":{"lon":-96.72972,"lat":32.94818},"location":"richardson, Texas, United States of America","state":"Texas","key":"richardson","count":94},{"country":"United States of America","city":"aurora","latlong":{"lon":-104.83192,"lat":39.72943},"location":"aurora, Colorado, United States of America","state":"Colorado","key":"aurora","count":89},{"country":"United States of America","city":"el segundo","latlong":{"lon":-118.41647,"lat":33.91918},"location":"el segundo, California, United States of America","state":"California","key":"el segundo","count":80},{"country":"United States of America","city":"goleta","latlong":{"lon":-119.82764,"lat":34.43583},"location":"goleta, California, United States of America","state":"California","key":"goleta","count":73},{"country":"United States of America","city":"midland","latlong":{"lon":-84.82715,"lat":32.57486},"location":"midland, Georgia, United States of America","state":"Georgia","key":"midland","count":72},{"country":"United States of America","city":"woburn","latlong":{"lon":-71.15228,"lat":42.47926},"location":"woburn, Massachusetts, United States of America","state":"Massachusetts","key":"woburn","count":71},{"country":"United States of America","city":"middletown","latlong":{"lon":-72.65065,"lat":41.56232},"location":"middletown, Connecticut, United States of America","state":"Connecticut","key":"middletown","count":64},{"country":"United States of America","city":"fort wayne","latlong":{"lon":-85.12886,"lat":41.1306},"location":"fort wayne, Indiana, United States of America","state":"Indiana","key":"fort wayne","count":52},{"country":"United States of America","city":"north berwick","latlong":{"lon":-70.73339,"lat":43.3037},"location":"north berwick, Maine, United States of America","state":"Maine","key":"north berwick","count":49},{"country":"United States of America","city":"aguadilla","latlong":{"lon":-67.15407,"lat":18.42745},"location":"aguadilla, Puerto Rico, United States of America","state":"Puerto Rico","key":"aguadilla","count":48},{"country":"United States of America","city":"santa isabel","latlong":{"lon":-66.40489,"lat":17.96608},"location":"santa isabel, Puerto Rico, United States of America","state":"Puerto Rico","key":"santa isabel","count":47},{"country":"United States of America","city":"windsor locks","latlong":{"lon":-72.62731,"lat":41.92926},"location":"windsor locks, Connecticut, United States of America","state":"Connecticut","key":"windsor locks","count":43},{"country":"United States of America","city":"asheville","latlong":{"lon":-82.55402,"lat":35.60095},"location":"asheville, North Carolina, United States of America","state":"North Carolina","key":"asheville","count":37},{"country":"United States of America","city":"clayville","latlong":{"lon":-75.251,"lat":42.98007},"location":"clayville, New York, United States of America","state":"New York","key":"clayville","count":37},{"country":"United States of America","city":"farmington","latlong":{"lon":-72.83204,"lat":41.71982},"location":"farmington, Connecticut, United States of America","state":"Connecticut","key":"farmington","count":35},{"country":"United States of America","city":"phoenix","latlong":{"lon":-112.07404,"lat":33.44838},"location":"phoenix, Arizona, United States of America","state":"Arizona","key":"phoenix","count":32},{"country":"United States of America","city":"jupiter","latlong":{"lon":-80.09421,"lat":26.93422},"location":"jupiter, Florida, United States of America","state":"Florida","key":"jupiter","count":31},{"country":"United States of America","city":"melbourne","latlong":{"lon":-80.60811,"lat":28.08363},"location":"melbourne, Florida, United States of America","state":"Florida","key":"melbourne","count":28},{"country":"United States of America","city":"hartford","latlong":{"lon":-72.68509,"lat":41.76371},"location":"hartford, Connecticut, United States of America","state":"Connecticut","key":"hartford","count":26},{"country":"United States of America","city":"largo","latlong":{"lon":-82.78842,"lat":27.90979},"location":"largo, Florida, United States of America","state":"Florida","key":"largo","count":26},{"country":"United States of America","city":"rockford","latlong":{"lon":-89.094,"lat":42.27113},"location":"rockford, Illinois, United States of America","state":"Illinois","key":"rockford","count":25},{"country":"United States of America","city":"austin","latlong":{"lon":-97.74306,"lat":30.26715},"location":"austin, Texas, United States of America","state":"Texas","key":"austin","count":24},{"country":"United States of America","city":"arlington","latlong":{"lon":-77.10428,"lat":38.88101},"location":"arlington, Virginia, United States of America","state":"Virginia","key":"arlington","count":23},{"country":"United States of America","city":"plano","latlong":{"lon":-96.69889,"lat":33.01984},"location":"plano, Texas, United States of America","state":"Texas","key":"plano","count":23},{"country":"United States of America","city":"sterling","latlong":{"lon":-77.4286,"lat":39.00622},"location":"sterling, Virginia, United States of America","state":"Virginia","key":"sterling","count":22},{"country":"United States of America","city":"boston","latlong":{"lon":-71.05977,"lat":42.35843},"location":"boston, Massachusetts, United States of America","state":"Massachusetts","key":"boston","count":20},{"country":"United States of America","city":"dulles","latlong":{"lon":-77.41582,"lat":39.03761},"location":"dulles, Virginia, United States of America","state":"Virginia","key":"dulles","count":20},{"country":"United States of America","city":"fullerton","latlong":{"lon":-117.92534,"lat":33.87029},"location":"fullerton, California, United States of America","state":"California","key":"fullerton","count":20},{"country":"United States of America","city":"jamestown","latlong":{"lon":-98.70844,"lat":46.91054},"location":"jamestown, North Dakota, United States of America","state":"North Dakota","key":"jamestown","count":20},{"country":"United States of America","city":"cambridge","latlong":{"lon":-71.10561,"lat":42.3751},"location":"cambridge, Massachusetts, United States of America","state":"Massachusetts","key":"cambridge","count":19},{"country":"United States of America","city":"portsmouth","latlong":{"lon":-71.25033,"lat":41.60232},"location":"portsmouth, Rhode Island, United States of America","state":"Rhode Island","key":"portsmouth","count":19},{"country":"United States of America","city":"burnsville","latlong":{"lon":-93.27772,"lat":44.76774},"location":"burnsville, Minnesota, United States of America","state":"Minnesota","key":"burnsville","count":18},{"country":"United States of America","city":"foley","latlong":{"lon":-87.6836,"lat":30.40659},"location":"foley, Alabama, United States of America","state":"Alabama","key":"foley","count":18},{"country":"United States of America","city":"york","latlong":{"lon":-97.592,"lat":40.86807},"location":"york, Nebraska, United States of America","state":"Nebraska","key":"york","count":17},{"country":"United States of America","city":"state college","latlong":{"lon":-77.86,"lat":40.79339},"location":"state college, Pennsylvania, United States of America","state":"Pennsylvania","key":"state college","count":16},{"country":"United States of America","city":"wilson","latlong":{"lon":-77.91554,"lat":35.72127},"location":"wilson, North Carolina, United States of America","state":"North Carolina","key":"wilson","count":16},{"country":"United States of America","city":"columbia","latlong":{"lon":-76.83942,"lat":39.24038},"location":"columbia, Maryland, United States of America","state":"Maryland","key":"columbia","count":15},{"country":"United States of America","city":"winston-salem","latlong":{"lon":-80.24422,"lat":36.09986},"location":"winston-salem, North Carolina, United States of America","state":"North Carolina","key":"winston-salem","count":14},{"country":"United States of America","city":"westford","latlong":{"lon":-71.43784,"lat":42.57926},"location":"westford, Massachusetts, United States of America","state":"Massachusetts","key":"westford","count":13},{"country":"United States of America","city":"atlanta","latlong":{"lon":-84.38798,"lat":33.749},"location":"atlanta, Georgia, United States of America","state":"Georgia","key":"atlanta","count":12},{"country":"United States of America","city":"buckley sfb","latlong":{"lon":-104.81583,"lat":39.74194},"location":"buckley sfb, Colorado, United States of America","state":"Colorado","key":"buckley sfb","count":12},{"country":"United States of America","city":"charlotte","latlong":{"lon":-80.84313,"lat":35.22709},"location":"charlotte, North Carolina, United States of America","state":"North Carolina","key":"charlotte","count":12},{"country":"United States of America","city":"fairfield","latlong":{"lon":-122.03997,"lat":38.24936},"location":"fairfield, California, United States of America","state":"California","key":"fairfield","count":12},{"country":"United States of America","city":"fulton","latlong":{"lon":-76.92303,"lat":39.15094},"location":"fulton, Maryland, United States of America","state":"Maryland","key":"fulton","count":12},{"country":"United States of America","city":"forest","latlong":{"lon":-89.47423,"lat":32.36459},"location":"forest, Mississippi, United States of America","state":"Mississippi","key":"forest","count":11},{"country":"United States of America","city":"lenexa","latlong":{"lon":-94.73357,"lat":38.95362},"location":"lenexa, Kansas, United States of America","state":"Kansas","key":"lenexa","count":11},{"country":"United States of America","city":"pelham","latlong":{"lon":-71.32451,"lat":42.73453},"location":"pelham, New Hampshire, United States of America","state":"New Hampshire","key":"pelham","count":11},{"country":"United States of America","city":"rome","latlong":{"lon":-75.45573,"lat":43.21285},"location":"rome, New York, United States of America","state":"New York","key":"rome","count":11},{"country":"United States of America","city":"chesapeake","latlong":{"lon":-76.27494,"lat":36.81904},"location":"chesapeake, Virginia, United States of America","state":"Virginia","key":"chesapeake","count":10},{"country":"United States of America","city":"troy","latlong":{"lon":-84.20328,"lat":40.0395},"location":"troy, Ohio, United States of America","state":"Ohio","key":"troy","count":10},{"country":"United States of America","city":"bridgeport","latlong":{"lon":-80.2562,"lat":39.28648},"location":"bridgeport, West Virginia, United States of America","state":"West Virginia","key":"bridgeport","count":9},{"country":"United States of America","city":"coralville","latlong":{"lon":-91.58045,"lat":41.6764},"location":"coralville, Iowa, United States of America","state":"Iowa","key":"coralville","count":9},{"country":"United States of America","city":"holt","latlong":{"lon":-84.51525,"lat":42.64059},"location":"holt, Michigan, United States of America","state":"Michigan","key":"holt","count":9},{"country":"United States of America","city":"jacksonville","latlong":{"lon":-81.65565,"lat":30.33218},"location":"jacksonville, Florida, United States of America","state":"Florida","key":"jacksonville","count":9},{"country":"United States of America","city":"manchester","latlong":{"lon":-71.45479,"lat":42.99564},"location":"manchester, New Hampshire, United States of America","state":"New Hampshire","key":"manchester","count":9},{"country":"United States of America","city":"manchester","latlong":{"lon":-91.45543,"lat":42.48415},"location":"manchester, Iowa, United States of America","state":"Iowa","key":"manchester","count":9},{"country":"United States of America","city":"san jose","latlong":{"lon":-121.89496,"lat":37.33939},"location":"san jose, California, United States of America","state":"California","key":"san jose","count":9},{"country":"United States of America","city":"spokane","latlong":{"lon":-117.42908,"lat":47.65966},"location":"spokane, Washington, United States of America","state":"Washington","key":"spokane","count":9},{"country":"United States of America","city":"west valley city","latlong":{"lon":-112.00105,"lat":40.69161},"location":"west valley city, Utah, United States of America","state":"Utah","key":"west valley city","count":9},{"country":"United States of America","city":"binghamton","latlong":{"lon":-75.91797,"lat":42.09869},"location":"binghamton, New York, United States of America","state":"New York","key":"binghamton","count":8},{"country":"United States of America","city":"cheshire","latlong":{"lon":-72.90066,"lat":41.49899},"location":"cheshire, Connecticut, United States of America","state":"Connecticut","key":"cheshire","count":8},{"country":"United States of America","city":"colorado springs","latlong":{"lon":-104.82136,"lat":38.83388},"location":"colorado springs, Colorado, United States of America","state":"Colorado","key":"colorado springs","count":8},{"country":"United States of America","city":"el paso","latlong":{"lon":-106.48693,"lat":31.75872},"location":"el paso, Texas, United States of America","state":"Texas","key":"el paso","count":8},{"country":"United States of America","city":"irving","latlong":{"lon":-96.94889,"lat":32.81402},"location":"irving, Texas, United States of America","state":"Texas","key":"irving","count":8},{"country":"United States of America","city":"raleigh","latlong":{"lon":-78.63861,"lat":35.7721},"location":"raleigh, North Carolina, United States of America","state":"North Carolina","key":"raleigh","count":8},{"country":"United States of America","city":"sacramento","latlong":{"lon":-121.4944,"lat":38.58157},"location":"sacramento, California, United States of America","state":"California","key":"sacramento","count":8},{"country":"United States of America","city":"san diego","latlong":{"lon":-117.16472,"lat":32.71571},"location":"san diego, California, United States of America","state":"California","key":"san diego","count":8},{"country":"United States of America","city":"carlsbad","latlong":{"lon":-117.35059,"lat":33.15809},"location":"carlsbad, California, United States of America","state":"California","key":"carlsbad","count":7},{"country":"United States of America","city":"des moines","latlong":{"lon":-93.60911,"lat":41.60054},"location":"des moines, Iowa, United States of America","state":"Iowa","key":"des moines","count":7},{"country":"United States of America","city":"oklahoma city","latlong":{"lon":-97.51643,"lat":35.46756},"location":"oklahoma city, Oklahoma, United States of America","state":"Oklahoma","key":"oklahoma city","count":7},{"country":"United States of America","city":"opa locka","latlong":{"lon":-80.25033,"lat":25.90232},"location":"opa locka, Florida, United States of America","state":"Florida","key":"opa locka","count":7},{"country":"United States of America","city":"san marcos","latlong":{"lon":-97.94139,"lat":29.88327},"location":"san marcos, Texas, United States of America","state":"Texas","key":"san marcos","count":7},{"country":"United States of America","city":"springdale","latlong":{"lon":-94.12881,"lat":36.18674},"location":"springdale, Arkansas, United States of America","state":"Arkansas","key":"springdale","count":7},{"country":"United States of America","city":"camden","latlong":{"lon":-92.83433,"lat":33.58456},"location":"camden, Arkansas, United States of America","state":"Arkansas","key":"camden","count":6},{"country":"United States of America","city":"dallas","latlong":{"lon":-96.80667,"lat":32.78306},"location":"dallas, Texas, United States of America","state":"Texas","key":"dallas","count":6},{"country":"United States of America","city":"everett","latlong":{"lon":-122.20208,"lat":47.97898},"location":"everett, Washington, United States of America","state":"Washington","key":"everett","count":6},{"country":"United States of America","city":"great falls","latlong":{"lon":-111.30081,"lat":47.50024},"location":"great falls, Montana, United States of America","state":"Montana","key":"great falls","count":6},{"country":"United States of America","city":"springfield","latlong":{"lon":-89.64371,"lat":39.80172},"location":"springfield, Illinois, United States of America","state":"Illinois","key":"springfield","count":6},{"country":"United States of America","city":"springfield","latlong":{"lon":-77.1872,"lat":38.78928},"location":"springfield, Virginia, United States of America","state":"Virginia","key":"springfield","count":6},{"country":"United States of America","city":"west des moines","latlong":{"lon":-93.71133,"lat":41.57721},"location":"west des moines, Iowa, United States of America","state":"Iowa","key":"west des moines","count":6},{"country":"United States of America","city":"anaheim","latlong":{"lon":-117.9145,"lat":33.83529},"location":"anaheim, California, United States of America","state":"California","key":"anaheim","count":5},{"country":"United States of America","city":"carroll","latlong":{"lon":-94.86693,"lat":42.06582},"location":"carroll, Iowa, United States of America","state":"Iowa","key":"carroll","count":5},{"country":"United States of America","city":"lansing","latlong":{"lon":-84.55553,"lat":42.73253},"location":"lansing, Michigan, United States of America","state":"Michigan","key":"lansing","count":5},{"country":"United States of America","city":"morrisville","latlong":{"lon":-78.82556,"lat":35.82348},"location":"morrisville, North Carolina, United States of America","state":"North Carolina","key":"morrisville","count":5},{"country":"United States of America","city":"pascagoula","latlong":{"lon":-88.55613,"lat":30.36576},"location":"pascagoula, Mississippi, United States of America","state":"Mississippi","key":"pascagoula","count":5},{"country":"United States of America","city":"tallahassee","latlong":{"lon":-84.28073,"lat":30.43826},"location":"tallahassee, Florida, United States of America","state":"Florida","key":"tallahassee","count":5},{"country":"United States of America","city":"tinker afb","latlong":{"lon":-97.3967,"lat":35.44951},"location":"tinker afb, Oklahoma, United States of America","state":"Oklahoma","key":"tinker afb","count":5},{"country":"United States of America","city":"bellevue","latlong":{"lon":-90.42291,"lat":42.25863},"location":"bellevue, Iowa, United States of America","state":"Iowa","key":"bellevue","count":4},{"country":"United States of America","city":"chula vista","latlong":{"lon":-117.0842,"lat":32.64005},"location":"chula vista, California, United States of America","state":"California","key":"chula vista","count":4},{"country":"United States of America","city":"durham","latlong":{"lon":-70.92645,"lat":43.13397},"location":"durham, New Hampshire, United States of America","state":"New Hampshire","key":"durham","count":4},{"country":"United States of America","city":"ft george g meade","latlong":{"lon":-76.74323,"lat":39.10815},"location":"ft george g meade, Maryland, United States of America","state":"Maryland","key":"ft george g meade","count":4},{"country":"United States of America","city":"grand prairie","latlong":{"lon":-96.99778,"lat":32.74596},"location":"grand prairie, Texas, United States of America","state":"Texas","key":"grand prairie","count":4},{"country":"United States of America","city":"indianapolis","latlong":{"lon":-86.15804,"lat":39.76838},"location":"indianapolis, Indiana, United States of America","state":"Indiana","key":"indianapolis","count":4},{"country":"United States of America","city":"miramar","latlong":{"lon":-80.23227,"lat":25.98731},"location":"miramar, Florida, United States of America","state":"Florida","key":"miramar","count":4},{"country":"United States of America","city":"montgomery","latlong":{"lon":-86.29997,"lat":32.36681},"location":"montgomery, Alabama, United States of America","state":"Alabama","key":"montgomery","count":4},{"country":"United States of America","city":"omaha","latlong":{"lon":-95.94043,"lat":41.25626},"location":"omaha, Nebraska, United States of America","state":"Nebraska","key":"omaha","count":4},{"country":"United States of America","city":"pueblo","latlong":{"lon":-104.60914,"lat":38.25445},"location":"pueblo, Colorado, United States of America","state":"Colorado","key":"pueblo","count":4},{"country":"United States of America","city":"richmond","latlong":{"lon":-77.46026,"lat":37.55376},"location":"richmond, Virginia, United States of America","state":"Virginia","key":"richmond","count":4},{"country":"United States of America","city":"santa fe springs","latlong":{"lon":-118.08535,"lat":33.94724},"location":"santa fe springs, California, United States of America","state":"California","key":"santa fe springs","count":4},{"country":"United States of America","city":"union","latlong":{"lon":-80.54368,"lat":37.59151},"location":"union, West Virginia, United States of America","state":"West Virginia","key":"union","count":4},{"country":"United States of America","city":"albany","latlong":{"lon":-73.75623,"lat":42.65258},"location":"albany, New York, United States of America","state":"New York","key":"albany","count":3},{"country":"United States of America","city":"alexandria","latlong":{"lon":-77.04692,"lat":38.80484},"location":"alexandria, Virginia, United States of America","state":"Virginia","key":"alexandria","count":3},{"country":"United States of America","city":"annapolis","latlong":{"lon":-76.49184,"lat":38.97859},"location":"annapolis, Maryland, United States of America","state":"Maryland","key":"annapolis","count":3},{"country":"United States of America","city":"beale afb","latlong":{"lon":-121.35444,"lat":39.10917},"location":"beale afb, California, United States of America","state":"California","key":"beale afb","count":3},{"country":"United States of America","city":"east granby","latlong":{"lon":-72.72732,"lat":41.94121},"location":"east granby, Connecticut, United States of America","state":"Connecticut","key":"east granby","count":3},{"country":"United States of America","city":"fort bliss","latlong":{"lon":-106.41224,"lat":31.81357},"location":"fort bliss, Texas, United States of America","state":"Texas","key":"fort bliss","count":3},{"country":"United States of America","city":"freer","latlong":{"lon":-98.61779,"lat":27.8828},"location":"freer, Texas, United States of America","state":"Texas","key":"freer","count":3},{"country":"United States of America","city":"greenville","latlong":{"lon":-96.11081,"lat":33.13845},"location":"greenville, Texas, United States of America","state":"Texas","key":"greenville","count":3},{"country":"United States of America","city":"haltom city","latlong":{"lon":-97.26918,"lat":32.79957},"location":"haltom city, Texas, United States of America","state":"Texas","key":"haltom city","count":3},{"country":"United States of America","city":"honolulu","latlong":{"lon":-157.85833,"lat":21.30694},"location":"honolulu, Hawaii, United States of America","state":"Hawaii","key":"honolulu","count":3},{"country":"United States of America","city":"lawton","latlong":{"lon":-98.39033,"lat":34.60869},"location":"lawton, Oklahoma, United States of America","state":"Oklahoma","key":"lawton","count":3},{"country":"United States of America","city":"lompoc","latlong":{"lon":-120.45794,"lat":34.63915},"location":"lompoc, California, United States of America","state":"California","key":"lompoc","count":3},{"country":"United States of America","city":"san juan","latlong":{"lon":-66.10572,"lat":18.46633},"location":"san juan, Puerto Rico, United States of America","state":"Puerto Rico","key":"san juan","count":3},{"country":"United States of America","city":"st petersburg","latlong":{"lon":-82.67927,"lat":27.77086},"location":"st petersburg, Florida, United States of America","state":"Florida","key":"st petersburg","count":3},{"country":"United States of America","city":"white sands","latlong":{"lon":-106.47944,"lat":32.38093},"location":"white sands, New Mexico, United States of America","state":"New Mexico","key":"white sands","count":3},{"country":"United States of America","city":"aberdeen","latlong":{"lon":-76.16412,"lat":39.50956},"location":"aberdeen, Maryland, United States of America","state":"Maryland","key":"aberdeen","count":2},{"country":"United States of America","city":"andrews afb","latlong":{"lon":-76.8746,"lat":38.80531},"location":"andrews afb, Maryland, United States of America","state":"Maryland","key":"andrews afb","count":2},{"country":"United States of America","city":"annapolis junction","latlong":{"lon":-76.78757,"lat":39.12287},"location":"annapolis junction, Maryland, United States of America","state":"Maryland","key":"annapolis junction","count":2},{"country":"United States of America","city":"edwards afb","latlong":{"lon":-117.93535,"lat":34.91637},"location":"edwards afb, California, United States of America","state":"California","key":"edwards afb","count":2},{"country":"United States of America","city":"frankfort","latlong":{"lon":-84.87328,"lat":38.20091},"location":"frankfort, Kentucky, United States of America","state":"Kentucky","key":"frankfort","count":2},{"country":"United States of America","city":"langley afb","latlong":{"lon":-76.38417,"lat":37.08472},"location":"langley afb, Virginia, United States of America","state":"Virginia","key":"langley afb","count":2},{"country":"United States of America","city":"louisville","latlong":{"lon":-85.75941,"lat":38.25424},"location":"louisville, Kentucky, United States of America","state":"Kentucky","key":"louisville","count":2},{"country":"United States of America","city":"medley","latlong":{"lon":-80.32644,"lat":25.84065},"location":"medley, Florida, United States of America","state":"Florida","key":"medley","count":2},{"country":"United States of America","city":"miamisburg","latlong":{"lon":-84.28661,"lat":39.64284},"location":"miamisburg, Ohio, United States of America","state":"Ohio","key":"miamisburg","count":2},{"country":"United States of America","city":"monroe","latlong":{"lon":-80.54951,"lat":34.98543},"location":"monroe, North Carolina, United States of America","state":"North Carolina","key":"monroe","count":2},{"country":"United States of America","city":"moorestown","latlong":{"lon":-74.94267,"lat":39.96706},"location":"moorestown, New Jersey, United States of America","state":"New Jersey","key":"moorestown","count":2},{"country":"United States of America","city":"nashville","latlong":{"lon":-86.78444,"lat":36.16589},"location":"nashville, Tennessee, United States of America","state":"Tennessee","key":"nashville","count":2},{"country":"United States of America","city":"salem","latlong":{"lon":-123.0351,"lat":44.9429},"location":"salem, Oregon, United States of America","state":"Oregon","key":"salem","count":2},{"country":"United States of America","city":"san miguel","latlong":{"lon":-117.16472,"lat":32.71571},"location":"san miguel, California, United States of America","state":"California","key":"san miguel","count":2},{"country":"United States of America","city":"south burlington","latlong":{"lon":-73.17096,"lat":44.46699},"location":"south burlington, Vermont, United States of America","state":"Vermont","key":"south burlington","count":2},{"country":"United States of America","city":"warner robins","latlong":{"lon":-83.62664,"lat":32.61574},"location":"warner robins, Georgia, United States of America","state":"Georgia","key":"warner robins","count":2},{"country":"United States of America","city":"wichita falls","latlong":{"lon":-98.49339,"lat":33.91371},"location":"wichita falls, Texas, United States of America","state":"Texas","key":"wichita falls","count":2},{"country":"United States of America","city":"bath","latlong":{"lon":-69.8206,"lat":43.91064},"location":"bath, Maine, United States of America","state":"Maine","key":"bath","count":1},{"country":"United States of America","city":"bismarck","latlong":{"lon":-100.78374,"lat":46.80833},"location":"bismarck, North Dakota, United States of America","state":"North Dakota","key":"bismarck","count":1},{"country":"United States of America","city":"chambersburg","latlong":{"lon":-77.6611,"lat":39.93759},"location":"chambersburg, Pennsylvania, United States of America","state":"Pennsylvania","key":"chambersburg","count":1},{"country":"United States of America","city":"chantilly","latlong":{"lon":-77.4311,"lat":38.89428},"location":"chantilly, Virginia, United States of America","state":"Virginia","key":"chantilly","count":1},{"country":"United States of America","city":"charlottesville","latlong":{"lon":-78.47668,"lat":38.02931},"location":"charlottesville, Virginia, United States of America","state":"Virginia","key":"charlottesville","count":1},{"country":"United States of America","city":"cherry point","latlong":{"lon":-76.86883,"lat":34.94183},"location":"cherry point, North Carolina, United States of America","state":"North Carolina","key":"cherry point","count":1},{"country":"United States of America","city":"cincinnati","latlong":{"lon":-84.51439,"lat":39.12711},"location":"cincinnati, Ohio, United States of America","state":"Ohio","key":"cincinnati","count":1},{"country":"United States of America","city":"cypress","latlong":{"lon":-118.03729,"lat":33.81696},"location":"cypress, California, United States of America","state":"California","key":"cypress","count":1},{"country":"United States of America","city":"decorah","latlong":{"lon":-91.78571,"lat":43.30331},"location":"decorah, Iowa, United States of America","state":"Iowa","key":"decorah","count":1},{"country":"United States of America","city":"des plaines","latlong":{"lon":-87.8834,"lat":42.03336},"location":"des plaines, Illinois, United States of America","state":"Illinois","key":"des plaines","count":1},{"country":"United States of America","city":"el dorado hills","latlong":{"lon":-121.08217,"lat":38.68574},"location":"el dorado hills, California, United States of America","state":"California","key":"el dorado hills","count":1},{"country":"United States of America","city":"federal way","latlong":{"lon":-122.31262,"lat":47.32232},"location":"federal way, Washington, United States of America","state":"Washington","key":"federal way","count":1},{"country":"United States of America","city":"fort campbell","latlong":{"lon":-87.46056,"lat":36.65429},"location":"fort campbell, Kentucky, United States of America","state":"Kentucky","key":"fort campbell","count":1},{"country":"United States of America","city":"fort lewis","latlong":{"lon":-122.57694,"lat":47.10787},"location":"fort lewis, Washington, United States of America","state":"Washington","key":"fort lewis","count":1},{"country":"United States of America","city":"glastonbury","latlong":{"lon":-72.60815,"lat":41.71232},"location":"glastonbury, Connecticut, United States of America","state":"Connecticut","key":"glastonbury","count":1},{"country":"United States of America","city":"harrisburg","latlong":{"lon":-76.88442,"lat":40.2737},"location":"harrisburg, Pennsylvania, United States of America","state":"Pennsylvania","key":"harrisburg","count":1},{"country":"United States of America","city":"houston","latlong":{"lon":-95.36327,"lat":29.76328},"location":"houston, Texas, United States of America","state":"Texas","key":"houston","count":1},{"country":"United States of America","city":"lafayette","latlong":{"lon":-105.08971,"lat":39.9936},"location":"lafayette, Colorado, United States of America","state":"Colorado","key":"lafayette","count":1},{"country":"United States of America","city":"lake suzy","latlong":{"lon":-82.03703,"lat":27.03811},"location":"lake suzy, Florida, United States of America","state":"Florida","key":"lake suzy","count":1},{"country":"United States of America","city":"lakewood","latlong":{"lon":-118.13396,"lat":33.85363},"location":"lakewood, California, United States of America","state":"California","key":"lakewood","count":1},{"country":"United States of America","city":"livermore","latlong":{"lon":-121.76801,"lat":37.68187},"location":"livermore, California, United States of America","state":"California","key":"livermore","count":1},{"country":"United States of America","city":"mcalester","latlong":{"lon":-95.76971,"lat":34.93343},"location":"mcalester, Oklahoma, United States of America","state":"Oklahoma","key":"mcalester","count":1},{"country":"United States of America","city":"merrimack","latlong":{"lon":-71.4934,"lat":42.86509},"location":"merrimack, New Hampshire, United States of America","state":"New Hampshire","key":"merrimack","count":1},{"country":"United States of America","city":"nellis afb","latlong":{"lon":-115.67058,"lat":36.56968},"location":"nellis afb, Nevada, United States of America","state":"Nevada","key":"nellis afb","count":1},{"country":"United States of America","city":"new kent","latlong":{"lon":-76.97886,"lat":37.51765},"location":"new kent, Virginia, United States of America","state":"Virginia","key":"new kent","count":1},{"country":"United States of America","city":"newport news","latlong":{"lon":-76.46965,"lat":37.08339},"location":"newport news, Virginia, United States of America","state":"Virginia","key":"newport news","count":1},{"country":"United States of America","city":"north charleston","latlong":{"lon":-79.97481,"lat":32.85462},"location":"north charleston, South Carolina, United States of America","state":"South Carolina","key":"north charleston","count":1},{"country":"United States of America","city":"ontario","latlong":{"lon":-117.65089,"lat":34.06334},"location":"ontario, California, United States of America","state":"California","key":"ontario","count":1},{"country":"United States of America","city":"patuxent river","latlong":{"lon":-76.74858,"lat":38.53929},"location":"patuxent river, Maryland, United States of America","state":"Maryland","key":"patuxent river","count":1},{"country":"United States of America","city":"peterson afb","latlong":{"lon":-104.78136,"lat":38.79583},"location":"peterson afb, Colorado, United States of America","state":"Colorado","key":"peterson afb","count":1},{"country":"United States of America","city":"pittsfield","latlong":{"lon":-73.24538,"lat":42.45008},"location":"pittsfield, Massachusetts, United States of America","state":"Massachusetts","key":"pittsfield","count":1},{"country":"United States of America","city":"poulsbo","latlong":{"lon":-122.64654,"lat":47.73593},"location":"poulsbo, Washington, United States of America","state":"Washington","key":"poulsbo","count":1},{"country":"United States of America","city":"riverside","latlong":{"lon":-117.39616,"lat":33.95335},"location":"riverside, California, United States of America","state":"California","key":"riverside","count":1},{"country":"United States of America","city":"saint paul","latlong":{"lon":-93.09327,"lat":44.94441},"location":"saint paul, Minnesota, United States of America","state":"Minnesota","key":"saint paul","count":1},{"country":"United States of America","city":"salt lake city","latlong":{"lon":-111.89105,"lat":40.76078},"location":"salt lake city, Utah, United States of America","state":"Utah","key":"salt lake city","count":1},{"country":"United States of America","city":"san dimas","latlong":{"lon":-117.80673,"lat":34.10668},"location":"san dimas, California, United States of America","state":"California","key":"san dimas","count":1},{"country":"United States of America","city":"savannah","latlong":{"lon":-81.09983,"lat":32.08354},"location":"savannah, Georgia, United States of America","state":"Georgia","key":"savannah","count":1},{"country":"United States of America","city":"simpsonville","latlong":{"lon":-82.25428,"lat":34.73706},"location":"simpsonville, South Carolina, United States of America","state":"South Carolina","key":"simpsonville","count":1},{"country":"United States of America","city":"uniontown","latlong":{"lon":-81.40817,"lat":40.97506},"location":"uniontown, Ohio, United States of America","state":"Ohio","key":"uniontown","count":1},{"country":"United States of America","city":"virgin","latlong":{"lon":-113.18828,"lat":37.20832},"location":"virgin, Utah, United States of America","state":"Utah","key":"virgin","count":1},{"country":"United States of America","city":"washington","latlong":{"lon":-77.03637,"lat":38.89511},"location":"washington, District of Columbia, United States of America","state":"District of Columbia","key":"washington","count":1},{"country":"United States of America","city":"washington dc","latlong":{"lon":-77.03637,"lat":38.89511},"location":"washington dc, District of Columbia, United States of America","state":"District of Columbia","key":"washington dc","count":1},{"country":"United States of America","city":"wilsonville","latlong":{"lon":-122.77371,"lat":45.29984},"location":"wilsonville, Oregon, United States of America","state":"Oregon","key":"wilsonville","count":1},{"country":"United States of America","city":"wright-patterson afb","latlong":{"lon":-84.05731,"lat":39.81113},"location":"wright-patterson afb, Ohio, United States of America","state":"Ohio","key":"wright-patterson afb","count":1}]},{"field":"location","value":[{"key":"tucson, Arizona, United States of America","count":552},{"key":"tewksbury, Massachusetts, United States of America","count":207},{"key":"cedar rapids, Iowa, United States of America","count":205},{"key":"andover, Massachusetts, United States of America","count":186},{"key":"east hartford, Connecticut, United States of America","count":160},{"key":"mckinney, Texas, United States of America","count":142},{"key":"marlborough, Massachusetts, United States of America","count":131},{"key":"huntsville, Alabama, United States of America","count":96},{"key":"richardson, Texas, United States of America","count":94},{"key":"aurora, Colorado, United States of America","count":89},{"key":"el segundo, California, United States of America","count":80},{"key":"goleta, California, United States of America","count":73},{"key":"midland, Georgia, United States of America","count":72},{"key":"woburn, Massachusetts, United States of America","count":71},{"key":"fort wayne, Indiana, United States of America","count":52},{"key":"north berwick, Maine, United States of America","count":49},{"key":"aguadilla, Puerto Rico, United States of America","count":48},{"key":"santa isabel, Puerto Rico, United States of America","count":47},{"key":"middletown, Connecticut, United States of America","count":43},{"key":"windsor locks, Connecticut, United States of America","count":43},{"key":"asheville, North Carolina, United States of America","count":37},{"key":"clayville, New York, United States of America","count":37},{"key":"phoenix, Arizona, United States of America","count":32},{"key":"jupiter, Florida, United States of America","count":31},{"key":"melbourne, Florida, United States of America","count":28},{"key":"farmington, Connecticut, United States of America","count":26},{"key":"hartford, Connecticut, United States of America","count":26},{"key":"largo, Florida, United States of America","count":26},{"key":"rockford, Illinois, United States of America","count":25},{"key":"austin, Texas, United States of America","count":24},{"key":"arlington, Virginia, United States of America","count":23},{"key":"plano, Texas, United States of America","count":23},{"key":"sterling, Virginia, United States of America","count":22},{"key":"boston, Massachusetts, United States of America","count":20},{"key":"dulles, Virginia, United States of America","count":20},{"key":"fullerton, California, United States of America","count":20},{"key":"jamestown, North Dakota, United States of America","count":20},{"key":"cambridge, Massachusetts, United States of America","count":19},{"key":"portsmouth, Rhode Island, United States of America","count":19},{"key":"burnsville, Minnesota, United States of America","count":18},{"key":"foley, Alabama, United States of America","count":18},{"key":"york, Nebraska, United States of America","count":17},{"key":"state college, Pennsylvania, United States of America","count":16},{"key":"wilson, North Carolina, United States of America","count":16},{"key":"columbia, Maryland, United States of America","count":14},{"key":"winston-salem, North Carolina, United States of America","count":14},{"key":"westford, Massachusetts, United States of America","count":13},{"key":"atlanta, Georgia, United States of America","count":12},{"key":"buckley sfb, Colorado, United States of America","count":12},{"key":"charlotte, North Carolina, United States of America","count":12},{"key":"fairfield, California, United States of America","count":12},{"key":"fulton, Maryland, United States of America","count":12},{"key":"forest, Mississippi, United States of America","count":11},{"key":"lenexa, Kansas, United States of America","count":11},{"key":"pelham, New Hampshire, United States of America","count":11},{"key":"rome, New York, United States of America","count":11},{"key":"chesapeake, Virginia, United States of America","count":10},{"key":"middletown, Rhode Island, United States of America","count":10},{"key":"troy, Ohio, United States of America","count":10},{"key":"bridgeport, West Virginia, United States of America","count":9},{"key":"coralville, Iowa, United States of America","count":9},{"key":"farmington, New Mexico, United States of America","count":9},{"key":"holt, Michigan, United States of America","count":9},{"key":"jacksonville, Florida, United States of America","count":9},{"key":"san jose, California, United States of America","count":9},{"key":"spokane, Washington, United States of America","count":9},{"key":"west valley city, Utah, United States of America","count":9},{"key":"binghamton, New York, United States of America","count":8},{"key":"cheshire, Connecticut, United States of America","count":8},{"key":"colorado springs, Colorado, United States of America","count":8},{"key":"el paso, Texas, United States of America","count":8},{"key":"irving, Texas, United States of America","count":8},{"key":"middletown, Pennsylvania, United States of America","count":8},{"key":"raleigh, North Carolina, United States of America","count":8},{"key":"sacramento, California, United States of America","count":8},{"key":"san diego, California, United States of America","count":8},{"key":"carlsbad, California, United States of America","count":7},{"key":"des moines, Iowa, United States of America","count":7},{"key":"oklahoma city, Oklahoma, United States of America","count":7},{"key":"opa locka, Florida, United States of America","count":7},{"key":"san marcos, Texas, United States of America","count":7},{"key":"springdale, Arkansas, United States of America","count":7},{"key":"camden, Arkansas, United States of America","count":6},{"key":"dallas, Texas, United States of America","count":6},{"key":"everett, Washington, United States of America","count":6},{"key":"great falls, Montana, United States of America","count":6},{"key":"manchester, Iowa, United States of America","count":6},{"key":"west des moines, Iowa, United States of America","count":6},{"key":"anaheim, California, United States of America","count":5},{"key":"carroll, Iowa, United States of America","count":5},{"key":"lansing, Michigan, United States of America","count":5},{"key":"morrisville, North Carolina, United States of America","count":5},{"key":"pascagoula, Mississippi, United States of America","count":5},{"key":"tallahassee, Florida, United States of America","count":5},{"key":"tinker afb, Oklahoma, United States of America","count":5},{"key":"bellevue, Iowa, United States of America","count":4},{"key":"chula vista, California, United States of America","count":4},{"key":"durham, New Hampshire, United States of America","count":4},{"key":"ft george g meade, Maryland, United States of America","count":4},{"key":"grand prairie, Texas, United States of America","count":4},{"key":"indianapolis, Indiana, United States of America","count":4},{"key":"miramar, Florida, United States of America","count":4},{"key":"montgomery, Alabama, United States of America","count":4},{"key":"omaha, Nebraska, United States of America","count":4},{"key":"pueblo, Colorado, United States of America","count":4},{"key":"richmond, Virginia, United States of America","count":4},{"key":"santa fe springs, California, United States of America","count":4},{"key":"union, West Virginia, United States of America","count":4},{"key":"albany, New York, United States of America","count":3},{"key":"alexandria, Virginia, United States of America","count":3},{"key":"annapolis, Maryland, United States of America","count":3},{"key":"beale afb, California, United States of America","count":3},{"key":"east granby, Connecticut, United States of America","count":3},{"key":"fort bliss, Texas, United States of America","count":3},{"key":"freer, Texas, United States of America","count":3},{"key":"greenville, Texas, United States of America","count":3},{"key":"haltom city, Texas, United States of America","count":3},{"key":"honolulu, Hawaii, United States of America","count":3},{"key":"lawton, Oklahoma, United States of America","count":3},{"key":"lompoc, California, United States of America","count":3},{"key":"manchester, New Hampshire, United States of America","count":3},{"key":"middletown, New York, United States of America","count":3},{"key":"san juan, Puerto Rico, United States of America","count":3},{"key":"springfield, Illinois, United States of America","count":3},{"key":"springfield, Virginia, United States of America","count":3},{"key":"st petersburg, Florida, United States of America","count":3},{"key":"white sands, New Mexico, United States of America","count":3},{"key":"aberdeen, Maryland, United States of America","count":2},{"key":"andrews afb, Maryland, United States of America","count":2},{"key":"annapolis junction, Maryland, United States of America","count":2},{"key":"edwards afb, California, United States of America","count":2},{"key":"frankfort, Kentucky, United States of America","count":2},{"key":"langley afb, Virginia, United States of America","count":2},{"key":"louisville, Kentucky, United States of America","count":2},{"key":"medley, Florida, United States of America","count":2},{"key":"miamisburg, Ohio, United States of America","count":2},{"key":"monroe, North Carolina, United States of America","count":2},{"key":"moorestown, New Jersey, United States of America","count":2},{"key":"nashville, Tennessee, United States of America","count":2},{"key":"salem, Oregon, United States of America","count":2},{"key":"san miguel, California, United States of America","count":2},{"key":"south burlington, Vermont, United States of America","count":2},{"key":"warner robins, Georgia, United States of America","count":2},{"key":"wichita falls, Texas, United States of America","count":2},{"key":"bath, Maine, United States of America","count":1},{"key":"bismarck, North Dakota, United States of America","count":1},{"key":"chambersburg, Pennsylvania, United States of America","count":1},{"key":"chantilly, Virginia, United States of America","count":1},{"key":"charlottesville, Virginia, United States of America","count":1},{"key":"cherry point, North Carolina, United States of America","count":1},{"key":"cincinnati, Ohio, United States of America","count":1},{"key":"columbia, South Carolina, United States of America","count":1},{"key":"cypress, California, United States of America","count":1},{"key":"decorah, Iowa, United States of America","count":1},{"key":"des plaines, Illinois, United States of America","count":1},{"key":"el dorado hills, California, United States of America","count":1},{"key":"federal way, Washington, United States of America","count":1},{"key":"fort campbell, Kentucky, United States of America","count":1},{"key":"fort lewis, Washington, United States of America","count":1},{"key":"glastonbury, Connecticut, United States of America","count":1},{"key":"harrisburg, Pennsylvania, United States of America","count":1},{"key":"houston, Texas, United States of America","count":1},{"key":"lafayette, Colorado, United States of America","count":1},{"key":"lake suzy, Florida, United States of America","count":1},{"key":"lakewood, California, United States of America","count":1},{"key":"livermore, California, United States of America","count":1},{"key":"mcalester, Oklahoma, United States of America","count":1},{"key":"merrimack, New Hampshire, United States of America","count":1},{"key":"nellis afb, Nevada, United States of America","count":1},{"key":"new kent, Virginia, United States of America","count":1},{"key":"newport news, Virginia, United States of America","count":1},{"key":"north charleston, South Carolina, United States of America","count":1},{"key":"ontario, California, United States of America","count":1},{"key":"patuxent river, Maryland, United States of America","count":1},{"key":"peterson afb, Colorado, United States of America","count":1},{"key":"pittsfield, Massachusetts, United States of America","count":1},{"key":"poulsbo, Washington, United States of America","count":1},{"key":"riverside, California, United States of America","count":1},{"key":"saint paul, Minnesota, United States of America","count":1},{"key":"salt lake city, Utah, United States of America","count":1},{"key":"san dimas, California, United States of America","count":1},{"key":"savannah, Georgia, United States of America","count":1},{"key":"simpsonville, South Carolina, United States of America","count":1},{"key":"uniontown, Ohio, United States of America","count":1},{"key":"virgin, Utah, United States of America","count":1},{"key":"washington dc, District of Columbia, United States of America","count":1},{"key":"washington, District of Columbia, United States of America","count":1},{"key":"wilsonville, Oregon, United States of America","count":1},{"key":"wright-patterson afb, Ohio, United States of America","count":1}]},{"field":"state","value":[{"key":"Arizona","count":584},{"key":"Massachusetts","count":549},{"key":"Texas","count":323},{"key":"Connecticut","count":308},{"key":"Iowa","count":243},{"key":"California","count":238},{"key":"Alabama","count":118},{"key":"Florida","count":116},{"key":"Colorado","count":115},{"key":"North Carolina","count":95},{"key":"Puerto Rico","count":92},{"key":"Virginia","count":91},{"key":"Georgia","count":87},{"key":"New York","count":62},{"key":"Indiana","count":56},{"key":"Maine","count":50},{"key":"Maryland","count":40},{"key":"Illinois","count":29},{"key":"Rhode Island","count":29},{"key":"Pennsylvania","count":26},{"key":"Nebraska","count":21},{"key":"North Dakota","count":21},{"key":"Minnesota","count":19},{"key":"New Hampshire","count":19},{"key":"Washington","count":18},{"key":"Mississippi","count":16},{"key":"Oklahoma","count":16},{"key":"Ohio","count":15},{"key":"Michigan","count":14},{"key":"Arkansas","count":13},{"key":"West Virginia","count":13},{"key":"New Mexico","count":12},{"key":"Kansas","count":11},{"key":"Utah","count":11},{"key":"Montana","count":6},{"key":"Kentucky","count":5},{"key":"Hawaii","count":3},{"key":"Oregon","count":3},{"key":"South Carolina","count":3},{"key":"District of Columbia","count":2},{"key":"New Jersey","count":2},{"key":"Tennessee","count":2},{"key":"Vermont","count":2},{"key":"Nevada","count":1}]},{"field":"category","value":[{"key":"Engineering","count":1605},{"key":"Operations","count":630},{"key":"Digital Technology","count":222},{"key":"Quality","count":160},{"key":"Finance","count":139},{"key":"Aftermarket & Service","count":112},{"key":"Other","count":99},{"key":"General Management","count":96},{"key":"Supply Chain","count":82},{"key":"Legal","count":36},{"key":"Human Resources","count":16},{"key":"Communications","count":3}]}]},"eid":{"eid":"6a5101c18f97d20e12e50152"}}}